[{"name": "Caf\u00e9 e Bar Cantinho de Ipanema", "lat": -22.982336, "lon": -43.202577}, {"name": "Bar Lagoa", "lat": -22.980038, "lon": -43.203401}, {"name": "Bar do Ad\u00e3o - Ipanema", "lat": -22.985817, "lon": -43.198583}, {"name": "Caf\u00e9 e Bar Zig Zag", "lat": -22.985495, "lon": -43.198826}, {"name": "Os\u00f3rio Bar", "lat": -22.984294, "lon": -43.194845}]