{"results": [{"fsq_id": "4c9b0a2cd4b1b1f7ad69d535", "categories": [{"id": 13035, "name": "Coffee Shop", "icon": {"prefix": "https://ss3.4sqi.net/img/categories_v2/food/coffeeshop_", "suffix": ".png"}}], "chains": [{"id": "ab4c54c0-d68a-012e-5619-003048cad9da", "name": "Starbucks"}], "distance": 823, "geocodes": {"main": {"latitude": 41.404985, "longitude": 2.192439}, "roof": {"latitude": 41.404985, "longitude": 2.192439}}, "link": "/v3/places/4c9b0a2cd4b1b1f7ad69d535", "location": {"address": "Avinguda Diagonal, 208", "address_extended": "Westfield Gl\u00f2ries", "admin_region": "Catalu\u00f1a", "country": "ES", "cross_street": "Westfield Gl\u00f2ries", "formatted_address": "Avinguda Diagonal, 208 (Westfield Gl\u00f2ries), 08018 Barcelona Catalonia", "locality": "Barcelona", "postcode": "08018", "region": "Catalonia"}, "name": "Starbucks", "related_places": {"parent": {"fsq_id": "4cb0831839458cfa814a03a0", "name": "Gl\u00f2ries Multicines"}}, "timezone": "Europe/Madrid"}, {"fsq_id": "4b7eb634f964a5208dfa2fe3", "categories": [{"id": 13035, "name": "Coffee Shop", "icon": {"prefix": "https://ss3.4sqi.net/img/categories_v2/food/coffeeshop_", "suffix": ".png"}}], "chains": [{"id": "ab4c54c0-d68a-012e-5619-003048cad9da", "name": "Starbucks"}], "distance": 1446, "geocodes": {"main": {"latitude": 41.402337, "longitude": 2.174068}, "roof": {"latitude": 41.402337, "longitude": 2.174068}}, "link": "/v3/places/4b7eb634f964a5208dfa2fe3", "location": {"address": "Pla\u00e7a de la Sagrada Fam\u00edlia, 19", "admin_region": "Catalu\u00f1a", "country": "ES", "formatted_address": "Pla\u00e7a de la Sagrada Fam\u00edlia, 19, 08013 Barcelona Catalonia", "locality": "Barcelona", "postcode": "08013", "region": "Catalonia"}, "name": "Starbucks", "related_places": {}, "timezone": "Europe/Madrid"}, {"fsq_id": "4b509cb6f964a520682927e3", "categories": [{"id": 13035, "name": "Coffee Shop", "icon": {"prefix": "https://ss3.4sqi.net/img/categories_v2/food/coffeeshop_", "suffix": ".png"}}], "chains": [{"id": "ab4c54c0-d68a-012e-5619-003048cad9da", "name": "Starbucks"}], "distance": 1813, "geocodes": {"main": {"latitude": 41.388819, "longitude": 2.171884}, "roof": {"latitude": 41.388819, "longitude": 2.171884}}, "link": "/v3/places/4b509cb6f964a520682927e3", "location": {"address": "Ronda de Sant Pere, 17", "admin_region": "Catalu\u00f1a", "country": "ES", "formatted_address": "Ronda de Sant Pere, 17, 08010 Barcelona Catalonia", "locality": "Barcelona", "postcode": "08010", "region": "Catalonia"}, "name": "Starbucks", "related_places": {}, "timezone": "Europe/Madrid"}, {"fsq_id": "59cb529c646e38736f2be338", "categories": [{"id": 13035, "name": "Coffee Shop", "icon": {"prefix": "https://ss3.4sqi.net/img/categories_v2/food/coffeeshop_", "suffix": ".png"}}], "chains": [{"id": "ab4c54c0-d68a-012e-5619-003048cad9da", "name": "Starbucks"}], "distance": 1749, "geocodes": {"drop_off": {"latitude": 41.383565, "longitude": 2.181095}, "main": {"latitude": 41.383506, "longitude": 2.18109}, "roof": {"latitude": 41.383506, "longitude": 2.18109}}, "link": "/v3/places/59cb529c646e38736f2be338", "location": {"address": "Calle Argenter\u00eda, 61", "admin_region": "Catalu\u00f1a", "country": "ES", "cross_street": "", "formatted_address": "Calle Argenter\u00eda, 61, 08003 Barcelona Catalonia", "locality": "Barcelona", "postcode": "08003", "region": "Catalonia"}, "name": "Starbucks", "related_places": {}, "timezone": "Europe/Madrid"}, {"fsq_id": "4b5f1bb8f964a52084a629e3", "categories": [{"id": 13035, "name": "Coffee Shop", "icon": {"prefix": "https://ss3.4sqi.net/img/categories_v2/food/coffeeshop_", "suffix": ".png"}}], "chains": [{"id": "ab4c54c0-d68a-012e-5619-003048cad9da", "name": "Starbucks"}], "distance": 1776, "geocodes": {"main": {"latitude": 41.385209, "longitude": 2.177359}, "roof": {"latitude": 41.385209, "longitude": 2.177359}}, "link": "/v3/places/4b5f1bb8f964a52084a629e3", "location": {"address": "V\u00eda Laietana, 32", "admin_region": "Catalu\u00f1a", "country": "ES", "cross_street": "", "formatted_address": "V\u00eda Laietana, 32, 08003 Barcelona Catalonia", "locality": "Barcelona", "postcode": "08003", "region": "Catalonia"}, "name": "Starbucks", "related_places": {}, "timezone": "Europe/Madrid"}], "context": {"geo_bounds": {"circle": {"center": {"latitude": 41.3977421, "longitude": 2.1902493}, "radius": 2000}}}}